[
	{
		"iata": "LGW",
		"icao": "EGKK",
		"lat": 51.148056,
		"lng": -0.190278,
		"name": "London/Gatwick",
		"timezone": "UTC/UTC +1"
	},
	{
		"iata": "LHR",
		"icao": "EGLL",
		"lat": 51.4775,
		"lng": -0.461389,
		"name": "London/Heathrow",
		"timezone": "UTC/UTC +1"
	},
	{
		"iata": "GLA",
		"icao": "EGPF",
		"lat": 55.871944,
		"lng": -4.433056,
		"name": "Glasgow",
		"timezone": "UTC/UTC +1"
	},
	{
		"iata": "EDI",
		"icao": "EGPH",
		"lat": 55.95,
		"lng": -3.3725,
		"name": "Edinburgh",
		"timezone": "UTC/UTC +1"
	},
	{
		"iata": "AMS",
		"icao": "EHAM",
		"lat": 52.308333,
		"lng": 4.763333,
		"name": "Amsterdam/Schiphol",
		"timezone": "UTC +1/UTC +2"
	},
	{
		"iata": "BCN",
		"icao": "LEBL",
		"lat": 41.296944,
		"lng": 2.078333,
		"name": "Barcelona/Josep Tarradellas-El Prat",
		"timezone": "UTC +1"
	},
	{
		"iata": "PMI",
		"icao": "LEPA",
		"lat": 39.551667,
		"lng": 2.738889,
		"name": "Palma de Mallorca",
		"timezone": "UTC +1",
		"icon": "BCN"
	},
	{
		"iata": "BVA",
		"icao": "LFOB",
		"lat": 49.454389,
		"lng": 2.113556,
		"name": "Paris/Beauvais",
		"timezone": "UTC +2"
	},
	{
		"iata": "CDG",
		"icao": "LFPG",
		"lat": 49.009722,
		"lng": 2.547778,
		"name": "Paris/Charles de Gaulle",
		"timezone": "UTC +2"
	},
	{
		"iata": "BUD",
		"icao": "LHBP",
		"lat": 47.439444,
		"lng": 19.261944,
		"name": "Budapest/Ferenc Liszt",
		"timezone": "UTC +1"
	},
	{
		"iata": "DPS",
		"icao": "WADD",
		"lat": -8.746667,
		"lng": 115.168333,
		"name": "Denpasar/I Gusti Ngurah Rai – Bali",
		"timezone": "UTC +8"
	},
	{
		"iata": "SIN",
		"icao": "WSSS",
		"lat": 1.359211,
		"lng": 103.989375,
		"name": "Singapore/Changi",
		"timezone": "UTC +8"
	},
	{
		"iata": "CAN",
		"icao": "ZGGG",
		"lat": 23.393333,
		"lng": 113.308333,
		"name": "Guangzhou/Baiyun",
		"timezone": "UTC +8"
	},
	{
		"iata": "PVG",
		"icao": "ZSPD",
		"lat": 31.145,
		"lng": 121.793333,
		"name": "Shanghai/Pudong",
		"timezone": "UTC +8",
		"icon": "SHA"
	},
	{
		"iata": "SHA",
		"icao": "ZSSS",
		"lat": 31.196667,
		"lng": 121.335,
		"name": "Shanghai/Hongqiao",
		"timezone": "UTC +8"
	}
]